City_ID,City,Lat,Lng,Max Temp,Humidity,Cloudiness,Wind Speed,Country,Date
0,jamestown,42.097,-79.2353,6.77,82,{'all': 75},2.68,US,1681728214
1,castro,-24.7911,-50.0119,18.56,95,{'all': 61},3.38,BR,1681728215
2,punta arenas,-53.15,-70.9167,4.06,70,{'all': 100},5.66,CL,1681728215
3,whitehorse,60.7161,-135.0538,-1.57,86,{'all': 75},1.03,CA,1681728070
4,flinders,-34.5833,150.8552,15.66,78,{'all': 10},1.34,AU,1681728217
5,soe,-9.8607,124.284,19.7,96,{'all': 88},0.78,ID,1681728218
6,mataura,-46.1927,168.8643,11.38,72,{'all': 100},1.3,NZ,1681728219
7,fairbanks,64.8378,-147.7164,-6.0,73,{'all': 75},0.0,US,1681728220
8,ahipara,-35.1667,173.1667,18.61,81,{'all': 71},6.12,NZ,1681728220
9,mount isa,-20.7333,139.5,21.87,49,{'all': 0},4.12,AU,1681728221
10,tiksi,71.6872,128.8694,-15.76,99,{'all': 98},0.84,RU,1681728222
11,anito,12.4497,125.2886,26.22,86,{'all': 97},3.08,PH,1681728222
12,aripuana,-9.1667,-60.6333,22.59,99,{'all': 100},0.45,BR,1681728223
13,broome,42.2506,-75.833,11.92,89,{'all': 100},3.6,US,1681728223
14,puerto ayora,-0.7393,-90.3518,23.64,100,{'all': 96},1.15,EC,1681728224
15,tigil,57.8,158.6667,0.87,86,{'all': 100},5.48,RU,1681728224
16,sambava,-14.2667,50.1667,28.25,72,{'all': 16},5.82,MG,1681728225
17,avarua,-21.2078,-159.775,22.03,64,{'all': 100},2.06,CK,1681728225
18,arraial do cabo,-22.9661,-42.0278,22.92,94,{'all': 75},3.6,BR,1681728226
19,rikitea,-23.1203,-134.9692,26.46,83,{'all': 89},6.31,PF,1681728226
20,port hardy,50.6996,-127.4199,5.0,100,{'all': 75},3.09,CA,1681728227
21,hilo,19.7297,-155.09,22.38,96,{'all': 100},4.12,US,1681728227
22,kenai,60.5544,-151.2583,1.16,92,{'all': 100},3.6,US,1681728228
23,nikolskoye,59.7035,30.7861,12.94,46,{'all': 53},2.02,RU,1681728228
24,carnarvon,-24.8667,113.6333,23.12,56,{'all': 98},8.27,AU,1681728229
25,curup,-3.4667,102.5333,22.61,95,{'all': 62},1.39,ID,1681728229
26,susehri,40.1644,38.0867,20.01,32,{'all': 77},1.47,TR,1681728230
27,hobyo,5.3505,48.5268,30.4,62,{'all': 15},5.44,SO,1681728230
28,sterling,39.0062,-77.4286,14.04,66,{'all': 75},8.23,US,1681727886
29,tazovskiy,67.4667,78.7,-11.35,91,{'all': 99},4.34,RU,1681728232
30,qaanaaq,77.484,-69.3632,-16.35,75,{'all': 4},2.57,GL,1681728232
31,vaini,-21.2,-175.2,26.09,83,{'all': 75},6.69,TO,1681728233
32,bathsheba,13.2167,-59.5167,26.34,69,{'all': 75},7.72,BB,1681728234
33,sola,-13.8833,167.55,28.32,71,{'all': 98},5.68,VU,1681728234
34,leningradskiy,69.3833,178.4167,-20.84,90,{'all': 29},2.47,RU,1681728235
35,tepalcingo,18.6,-98.85,21.33,46,{'all': 24},1.62,MX,1681728235
36,east london,-33.0153,27.9116,28.52,42,{'all': 0},1.54,ZA,1681728236
37,hithadhoo,-0.6,73.0833,29.25,67,{'all': 47},2.76,MV,1681728236
38,bredasdorp,-34.5322,20.0403,25.7,33,{'all': 5},2.01,ZA,1681728237
39,albany,42.6001,-73.9662,15.49,88,{'all': 100},3.53,US,1681728237
40,mar del plata,-38.0023,-57.5575,10.05,94,{'all': 0},1.54,AR,1681728238
41,shache,38.4167,77.2406,27.42,12,{'all': 38},3.67,CN,1681727972
42,berlevag,70.8578,29.0864,4.0,87,{'all': 75},5.66,NO,1681728239
43,busselton,-33.65,115.3333,17.3,66,{'all': 73},4.13,AU,1681728018
44,barrow,71.2906,-156.7887,-23.99,84,{'all': 0},4.63,US,1681728005
45,cabo san lucas,22.8909,-109.9124,20.84,60,{'all': 17},3.62,MX,1681728240
46,ushuaia,-54.8,-68.3,3.81,65,{'all': 75},2.57,AR,1681728159
47,san jeronimo,-11.9472,-75.2829,9.02,86,{'all': 100},0.74,PE,1681728242
48,kapaa,22.0752,-159.319,23.18,89,{'all': 20},3.09,US,1681728242
49,haines junction,60.7522,-137.5108,-1.03,86,{'all': 100},0.0,CA,1681728242
50,starokucherganovka,46.3248,47.9555,15.96,20,{'all': 0},5.0,RU,1681728243
51,upernavik,72.7868,-56.1549,-19.27,100,{'all': 99},3.78,GL,1681728244
52,dikson,73.5069,80.5464,-10.84,93,{'all': 75},3.92,RU,1681728244
53,sorland,67.667,12.6934,7.92,88,{'all': 59},4.75,NO,1681728244
54,cape town,-33.9258,18.4232,21.73,70,{'all': 20},5.66,ZA,1681728245
55,georgetown,5.4112,100.3354,32.96,70,{'all': 20},4.12,MY,1681728116
56,sudova vyshnya,49.7889,23.3722,12.13,88,{'all': 100},6.85,UA,1681728247
57,rio gallegos,-51.6226,-69.2181,1.03,69,{'all': 0},8.75,AR,1681728247
58,khatanga,71.9667,102.5,-10.5,87,{'all': 100},5.41,RU,1681728248
59,matay,28.419,30.7792,33.9,8,{'all': 0},1.75,EG,1681728249
60,los llanos de aridane,28.6585,-17.9182,19.86,72,{'all': 75},6.69,ES,1681728250
61,provideniya,64.3833,-173.3,-15.72,100,{'all': 91},0.92,RU,1681728250
62,bethel,41.3712,-73.414,13.47,90,{'all': 100},2.57,US,1681728176
63,tahe,52.3333,124.7333,6.99,42,{'all': 100},1.02,CN,1681728252
64,muros,42.7762,-9.0603,25.05,68,{'all': 77},1.22,ES,1681728252
65,norman wells,65.282,-126.8329,-7.98,79,{'all': 75},6.17,CA,1681728253
66,yellowknife,62.456,-114.3525,1.29,69,{'all': 40},6.17,CA,1681728253
67,pochutla,15.7432,-96.4661,25.46,76,{'all': 96},1.02,MX,1681728253
68,aasiaat,68.7098,-52.8699,-14.21,100,{'all': 100},1.58,GL,1681728255
69,narok,-1.0783,35.8601,26.02,39,{'all': 95},6.23,KE,1681728255
70,carutapera,-1.195,-46.02,25.62,90,{'all': 91},1.79,BR,1681728256
71,namibe,-15.1961,12.1522,28.81,58,{'all': 82},4.28,AO,1681728257
72,primorsk,46.7348,36.3443,11.9,48,{'all': 74},11.66,UA,1681728258
73,soyo,-6.1349,12.3689,29.28,69,{'all': 98},1.74,AO,1681728258
74,bubaque,11.2833,-15.8333,25.86,72,{'all': 53},3.44,GW,1681728259
75,mattru,7.6244,-11.8332,29.63,67,{'all': 98},0.17,SL,1681728260
76,kupang,-10.1667,123.5833,25.32,100,{'all': 20},1.03,ID,1681728224
77,tasiilaq,65.6145,-37.6368,2.09,93,{'all': 100},9.13,GL,1681728261
78,san patricio,28.017,-97.5169,21.02,67,{'all': 0},3.05,US,1681728262
79,sakaiminato,35.55,133.2333,14.99,63,{'all': 75},1.54,JP,1681728205
80,caravelas,-17.7125,-39.2481,26.54,74,{'all': 48},1.16,BR,1681728263
81,hami,42.8,93.45,24.77,16,{'all': 58},0.1,CN,1681728263
82,wewak,-3.5534,143.6268,27.15,83,{'all': 100},3.46,PG,1681728264
83,kununurra,-15.7667,128.7333,21.99,60,{'all': 54},1.03,AU,1681728265
84,klaksvik,62.2266,-6.589,9.51,97,{'all': 98},7.73,FO,1681728265
85,ilulissat,69.2167,-51.1,-3.99,86,{'all': 100},7.2,GL,1681728266
86,kautokeino,69.0125,23.0412,0.76,96,{'all': 63},1.1,NO,1681728266
87,labuhan,-6.8844,112.2051,27.31,81,{'all': 96},3.2,ID,1681728267
88,oktyabrskoye,43.0645,44.7417,6.08,76,{'all': 100},2.0,RU,1681728268
89,ambilobe,-13.2,49.05,32.92,49,{'all': 8},1.93,MG,1681728268
90,chokurdakh,70.6333,147.9167,-20.05,100,{'all': 24},1.49,RU,1681728269
91,brae,60.3964,-1.353,10.22,77,{'all': 67},7.68,GB,1681728269
92,sao filipe,14.8961,-24.4956,23.77,79,{'all': 47},4.56,CV,1681728269
93,kaitangata,-46.2817,169.8464,13.7,70,{'all': 100},0.76,NZ,1681728270
94,hinatuan,8.3722,126.3342,26.3,83,{'all': 4},1.49,PH,1681728271
95,wencheng,33.0559,113.7978,26.76,53,{'all': 99},4.6,CN,1681728271
96,saint-joseph,-21.3667,55.6167,30.21,79,{'all': 49},2.51,RE,1681728272
97,torbay,47.6666,-52.7314,0.16,91,{'all': 100},1.34,CA,1681728273
98,wanning,18.8003,110.3967,25.93,90,{'all': 67},4.02,CN,1681728200
99,butaritari,3.0707,172.7902,27.61,80,{'all': 77},3.82,KI,1681728273
100,ponta do sol,32.6667,-17.1,23.73,68,{'all': 100},0.74,PT,1681728274
101,west bay,19.3667,-81.4167,25.56,89,{'all': 0},1.97,KY,1681728275
102,atar,20.5169,-13.0499,30.22,21,{'all': 0},2.85,MR,1681728275
103,port alfred,-33.5906,26.891,26.77,50,{'all': 2},0.45,ZA,1681728275
104,cidreira,-30.1811,-50.2056,19.81,88,{'all': 85},5.37,BR,1681728276
105,hobart,-42.8794,147.3294,11.14,76,{'all': 20},2.06,AU,1681728068
106,chuy,-33.6971,-53.4616,14.41,87,{'all': 88},3.39,UY,1681728278
107,pacific grove,36.6177,-121.9166,9.82,89,{'all': 75},2.06,US,1681728279
108,bengkulu,-3.8004,102.2655,27.21,80,{'all': 77},1.3,ID,1681728279
109,banikoara,11.2985,2.4386,37.32,28,{'all': 61},3.17,BJ,1681728153
110,matagami,49.7502,-77.6328,8.06,71,{'all': 75},2.06,CA,1681728280
111,san lazaro,18.0387,-88.6622,22.99,91,{'all': 98},1.54,BZ,1681728281
112,saint-augustin,51.226,-58.6502,1.76,67,{'all': 100},1.78,CA,1681728281
113,portland,45.5234,-122.6762,5.89,88,{'all': 33},0.89,US,1681728282
114,airai,-8.9266,125.4092,16.81,98,{'all': 100},0.83,TL,1681728282
115,luba,3.4568,8.5547,28.94,72,{'all': 79},3.12,GQ,1681728283
116,luwuk,-0.9516,122.7875,26.86,87,{'all': 100},0.35,ID,1681728283
117,atuona,-9.8,-139.0333,27.01,81,{'all': 16},7.96,PF,1681728284
118,santa maria,-29.6842,-53.8069,17.61,100,{'all': 100},0.51,BR,1681728118
119,freetown,8.484,-13.2299,26.84,78,{'all': 40},4.12,SL,1681728274
120,shimoda,34.6667,138.95,13.95,67,{'all': 1},1.97,JP,1681728020
121,senanga,-16.1167,23.2667,29.56,30,{'all': 64},3.88,ZM,1681728286
122,arrecife,28.963,-13.5477,22.99,53,{'all': 20},4.63,ES,1681728269
123,cherskiy,68.75,161.3,-12.93,87,{'all': 6},2.58,RU,1681728287
124,tessalit,20.1986,1.0114,34.15,5,{'all': 0},4.57,ML,1681728288
125,saysain,14.5611,120.3925,30.05,75,{'all': 26},1.66,PH,1681728288
126,svetlogorsk,52.6333,29.7333,11.91,57,{'all': 100},3.08,BY,1681728289
127,saskylakh,71.9167,114.0833,-14.09,97,{'all': 100},3.22,RU,1681728290
128,coari,-4.085,-63.1414,23.18,98,{'all': 100},0.82,BR,1681728278
129,araguaina,-7.1911,-48.2072,25.01,86,{'all': 85},0.58,BR,1681728291
130,touros,-5.1989,-35.4608,25.76,90,{'all': 100},3.66,BR,1681728292
131,grand-santi,4.25,-54.3833,23.82,97,{'all': 100},1.11,GF,1681728292
132,katangli,51.7102,143.2326,-2.83,94,{'all': 100},5.61,RU,1681728293
133,toba,34.4833,136.85,14.0,60,{'all': 0},7.18,JP,1681728118
134,port lincoln,-34.7333,135.8667,17.08,88,{'all': 69},5.35,AU,1681728294
135,faanui,-16.4833,-151.75,27.07,76,{'all': 34},4.35,PF,1681728294
136,luanda,-8.8368,13.2343,30.0,70,{'all': 75},3.6,AO,1681728044
137,coahuayana,18.7333,-103.6833,21.03,86,{'all': 5},1.13,MX,1681728295
138,pierre,44.3683,-100.351,-0.4,80,{'all': 0},1.79,US,1681728296
139,aksu,41.1231,80.2644,24.62,17,{'all': 100},5.7,CN,1681728296
140,bousso,10.4795,16.7117,39.44,11,{'all': 58},3.37,TD,1681728297
141,namwala,-15.7504,26.4384,26.41,43,{'all': 80},4.14,ZM,1681728297
142,kharagpur,22.3333,87.3333,42.22,14,{'all': 21},3.72,IN,1681728298
143,platteville,42.7342,-90.4785,-0.48,92,{'all': 100},10.55,US,1681728247
144,sitka,57.0531,-135.33,3.94,87,{'all': 75},2.06,US,1681728299
145,dongsheng,39.8161,109.9776,17.44,20,{'all': 73},8.41,CN,1681728299
146,kloulklubed,7.0419,134.2556,26.28,71,{'all': 24},3.37,PW,1681728300
147,piterka,50.6803,47.4454,13.51,28,{'all': 35},3.37,RU,1681728300
148,yongchang,30.0381,119.7317,23.55,65,{'all': 5},1.92,CN,1681728301
149,mehamn,71.0357,27.8492,3.97,87,{'all': 75},6.69,NO,1681728301
150,road town,18.4167,-64.6167,23.05,75,{'all': 3},4.67,VG,1681728302
151,medicine hat,50.0501,-110.6683,5.24,87,{'all': 0},4.12,CA,1681728302
152,ribeira grande,38.5167,-28.7,16.22,63,{'all': 40},6.17,PT,1681728303
153,roma,43.2128,-75.4557,10.53,91,{'all': 100},5.14,US,1681728066
154,puerto del rosario,28.5004,-13.8627,22.86,53,{'all': 20},6.17,ES,1681728304
155,sobolevo,54.4299,31.8996,9.55,68,{'all': 100},1.94,RU,1681728304
156,mount gambier,-37.8333,140.7667,13.79,93,{'all': 51},2.83,AU,1681728305
157,bluff,-46.6,168.3333,11.56,76,{'all': 100},3.05,NZ,1681728305
158,maragogi,-9.0122,-35.2225,27.27,80,{'all': 100},2.01,BR,1681728306
159,tutoia,-2.7619,-42.2744,25.94,88,{'all': 100},1.37,BR,1681728307
160,atbasar,51.8,68.3333,1.36,65,{'all': 36},5.18,KZ,1681728307
161,mosquera,4.7059,-74.2302,11.05,93,{'all': 75},2.06,CO,1681728308
162,alice springs,-23.7,133.8833,13.75,72,{'all': 0},3.6,AU,1681728216
163,noyabrsk,63.1994,75.4507,-12.52,76,{'all': 99},7.02,RU,1681728157
164,gaillac,43.9016,1.8969,15.31,55,{'all': 40},3.54,FR,1681728309
165,katherine,-14.4667,132.2667,22.18,73,{'all': 19},2.57,AU,1681728306
166,longyearbyen,78.2186,15.6401,1.91,87,{'all': 75},6.17,SJ,1681728310
167,verkhnyaya inta,65.9811,60.3094,-2.92,71,{'all': 37},3.47,RU,1681728311
168,tilichiki,60.4667,166.1,-1.0,98,{'all': 100},6.39,RU,1681728311
169,esperance,-33.8667,121.9,19.58,75,{'all': 86},9.15,AU,1681728312
170,bontang,0.1333,117.5,27.86,79,{'all': 100},2.66,ID,1681728312
171,tuktoyaktuk,69.4541,-133.0374,-10.52,96,{'all': 100},3.16,CA,1681728313
172,isangel,-19.55,169.2667,27.02,87,{'all': 100},7.01,VU,1681728314
173,kirakira,-10.4544,161.9205,25.51,84,{'all': 32},2.35,SB,1681728314
174,tual,-5.6667,132.75,28.1,81,{'all': 94},5.1,ID,1681728315
175,salgueiro,-8.0742,-39.1192,24.99,76,{'all': 100},1.35,BR,1681728315
176,baykit,61.67,96.37,-4.12,81,{'all': 98},1.78,RU,1681728316
177,narsaq,60.9167,-46.05,4.12,68,{'all': 99},1.5,GL,1681728316
178,jaguey grande,22.5269,-81.1286,22.34,90,{'all': 79},1.29,CU,1681728317
179,batangafo,7.3008,18.2833,37.59,29,{'all': 95},1.82,CF,1681728317
180,victoria,22.2855,114.1577,28.44,81,{'all': 37},6.71,HK,1681728218
181,ilawa,53.596,19.5685,14.36,67,{'all': 90},4.75,PL,1681728100
182,hervey bay,-25.2986,152.8535,24.45,79,{'all': 40},9.95,AU,1681728319
183,evensk,61.95,159.2333,-2.26,87,{'all': 100},7.97,RU,1681728319
184,kichera,55.9375,110.0997,-7.54,83,{'all': 73},0.61,RU,1681728320
185,port-cartier,50.0334,-66.8654,1.12,89,{'all': 100},4.36,CA,1681728320
186,finschhafen,-6.6024,147.8681,26.95,77,{'all': 100},0.33,PG,1681728321
187,porterville,36.0652,-119.0168,10.95,87,{'all': 0},1.54,US,1681728321
188,kaniama,-7.5667,24.1833,22.67,89,{'all': 89},1.83,CD,1681728322
189,quang ngai,15.1167,108.8,25.98,91,{'all': 71},3.22,VN,1681728105
190,ulaangom,49.9811,92.0667,3.75,48,{'all': 64},4.84,MN,1681728323
191,novoomskiy,54.8415,73.3017,-1.99,26,{'all': 0},9.0,RU,1681728324
192,san quintin,30.4833,-115.95,13.16,81,{'all': 92},5.92,MX,1681728324
193,camacha,33.0833,-16.3333,18.68,68,{'all': 20},6.69,PT,1681728325
194,santa cruz del sur,20.7147,-77.9956,24.6,80,{'all': 0},0.58,CU,1681728326
195,bitung,1.4451,125.1824,28.47,81,{'all': 64},3.71,ID,1681728319
196,trelew,-43.249,-65.3051,7.36,61,{'all': 43},5.93,AR,1681728326
197,ternate,0.8,127.4,28.41,75,{'all': 48},3.02,ID,1681728327
198,alofi,-19.0595,-169.9187,24.94,73,{'all': 75},4.63,NU,1681728327
199,vila velha,-20.3297,-40.2925,23.86,85,{'all': 20},1.03,BR,1681728328
200,marsh harbour,26.5412,-77.0636,24.67,84,{'all': 100},6.09,BS,1681728329
201,turayf,31.6725,38.6637,26.14,15,{'all': 20},3.6,SA,1681728190
202,awjilah,29.1081,21.2869,31.13,12,{'all': 34},2.85,LY,1681728329
203,yongan,39.6957,113.6871,20.17,26,{'all': 76},4.18,CN,1681728330
204,maldonado,-34.6667,-54.9167,15.08,85,{'all': 100},0.86,UY,1681728127
205,osoyoos,49.0331,-119.4524,7.23,49,{'all': 60},2.06,CA,1681728331
206,lebu,-37.6167,-73.65,8.4,88,{'all': 8},3.04,CL,1681728332
207,chapais,49.7834,-74.8492,4.88,97,{'all': 93},4.79,CA,1681728332
208,port elizabeth,-33.918,25.5701,27.16,41,{'all': 0},2.06,ZA,1681728333
209,yangjiang,21.85,111.9667,23.94,86,{'all': 48},3.35,CN,1681728334
210,pedernales,18.0384,-71.744,25.17,78,{'all': 4},1.09,DO,1681728334
211,sompeta,18.9333,84.6,32.85,52,{'all': 61},6.53,IN,1681728334
212,gaoual,11.75,-13.2,38.4,27,{'all': 63},0.55,GN,1681728335
213,santa cruz,-17.8,-63.1667,22.03,94,{'all': 20},3.6,BO,1681728335
214,thompson,55.7435,-97.8558,-7.91,73,{'all': 0},1.54,CA,1681728336
215,hamilton,39.1834,-84.5333,6.47,77,{'all': 100},6.69,US,1681728336
216,sioux lookout,50.1001,-91.917,-4.96,80,{'all': 100},6.69,CA,1681728337
217,bartica,6.4,-58.6167,24.18,95,{'all': 88},0.61,GY,1681728337
218,ostrovnoy,68.0531,39.5131,-0.23,75,{'all': 9},2.0,RU,1681728338
219,gbarnga,6.9956,-9.4722,29.1,65,{'all': 94},1.2,LR,1681728339
220,tezu,27.9167,96.1667,35.35,20,{'all': 16},1.85,IN,1681728340
221,severo-kurilsk,50.6789,156.125,1.48,97,{'all': 91},8.39,RU,1681728340
222,sept-iles,50.2001,-66.3821,1.29,75,{'all': 75},2.57,CA,1681728341
223,tiarei,-17.5333,-149.3333,26.01,76,{'all': 43},3.99,PF,1681728341
224,puerto rico,-26.796,-55.024,21.54,100,{'all': 100},0.33,AR,1681728279
225,friesach,46.9553,14.4058,13.87,56,{'all': 71},2.59,AT,1681728342
226,ecoporanga,-18.3733,-40.8306,23.56,81,{'all': 68},0.81,BR,1681728343
227,jiazi,22.8779,116.067,24.63,86,{'all': 28},3.65,CN,1681728343
228,celestun,20.8667,-90.4,23.56,83,{'all': 64},4.85,MX,1681728344
229,rovaniemi,66.5,25.7167,6.67,42,{'all': 0},3.6,FI,1681728345
230,cape canaveral,28.4058,-80.6048,21.12,92,{'all': 100},3.6,US,1681728346
231,mersing,2.4312,103.8405,29.95,79,{'all': 40},2.06,MY,1681728348
232,santarem,-2.4431,-54.7083,24.07,100,{'all': 75},0.0,BR,1681728348
233,sarahan,31.5167,77.8,20.77,32,{'all': 27},2.69,IN,1681728349
234,hasaki,35.7333,140.8333,12.9,51,{'all': 54},5.5,JP,1681728349
235,seguela,7.9611,-6.6731,32.91,47,{'all': 70},3.61,CI,1681728350
236,sur,22.5667,59.5289,28.83,51,{'all': 9},3.66,OM,1681728317
237,naron,43.5167,-8.1528,24.23,45,{'all': 48},3.79,ES,1681728061
238,houston,29.7633,-95.3633,15.02,64,{'all': 75},5.66,US,1681728202
239,springbok,-29.6643,17.8865,31.72,9,{'all': 3},4.98,ZA,1681728352
240,laguna,38.421,-121.4238,10.78,86,{'all': 0},2.06,US,1681728353
241,natal,-5.795,-35.2094,24.12,88,{'all': 75},2.57,BR,1681728198
242,pemberton,50.3164,-122.8027,-3.41,98,{'all': 72},1.42,CA,1681728354
243,iqaluit,63.7506,-68.5145,-15.15,78,{'all': 75},4.63,CA,1681728354
244,nyagan,62.1406,65.3936,-5.0,79,{'all': 27},3.63,RU,1681728355
245,vanimo,-2.6741,141.3028,26.77,84,{'all': 99},2.7,PG,1681728355
246,fort abbas,29.1925,72.8536,39.33,13,{'all': 85},4.61,PK,1681728356
247,manaus,-3.1019,-60.025,25.27,94,{'all': 75},2.57,BR,1681728256
248,comodoro rivadavia,-45.8667,-67.5,1.92,60,{'all': 0},1.54,AR,1681728357
249,new norfolk,-42.7826,147.0587,10.95,70,{'all': 16},0.45,AU,1681728357
250,plettenberg bay,-34.0527,23.3716,22.14,49,{'all': 10},2.55,ZA,1681728358
251,santa isabel,-23.3156,-46.2214,20.42,88,{'all': 38},1.14,BR,1681728359
252,henties bay,-22.116,14.2845,22.77,62,{'all': 66},3.59,NA,1681728360
253,almaznyy,48.0448,40.045,12.41,37,{'all': 100},9.32,RU,1681728362
254,durango,24.8333,-104.8333,12.01,67,{'all': 0},1.24,MX,1681728305
255,ozernovskiy,51.5,156.5167,1.72,93,{'all': 25},4.13,RU,1681728363
256,puerto narino,-3.7703,-70.3831,22.65,99,{'all': 100},1.79,CO,1681728363
257,fortuna,40.5982,-124.1573,7.59,93,{'all': 100},1.63,US,1681728364
258,zandak,43.0572,46.4567,12.79,56,{'all': 41},3.51,RU,1681728365
259,baruun-urt,46.6806,113.2792,5.36,70,{'all': 83},9.71,MN,1681728366
260,vila,42.0304,-8.1588,19.83,49,{'all': 98},1.0,PT,1681728367
261,phulabani,20.4667,84.2333,39.52,12,{'all': 46},3.95,IN,1681728367
262,souillac,-20.5167,57.5167,25.21,88,{'all': 40},1.03,MU,1681728368
263,black diamond,47.3087,-122.0032,3.48,91,{'all': 84},0.89,US,1681728369
264,pevek,69.7008,170.3133,-20.18,89,{'all': 8},2.66,RU,1681728369
265,srivardhan,18.0333,73.0167,31.13,55,{'all': 2},7.7,IN,1681728371
266,kyzyl-suu,42.3414,78.0056,11.15,61,{'all': 100},2.17,KG,1681728192
267,geraldton,-28.7667,114.6,21.23,73,{'all': 100},7.2,AU,1681728342
268,tarrafal,15.2833,-23.7667,26.44,83,{'all': 58},7.74,CV,1681728373
269,okhotsk,59.3833,143.3,-5.88,89,{'all': 53},2.02,RU,1681728373
270,saint-philippe,-21.3585,55.7679,30.77,80,{'all': 60},4.02,RE,1681728374
271,dubbo,-32.25,148.6167,16.07,51,{'all': 0},5.14,AU,1681728147
272,sal rei,16.1833,-22.9167,24.11,78,{'all': 75},9.77,CV,1681728375
273,manavalakurichi,8.1333,77.3,30.45,66,{'all': 16},3.24,IN,1681728375
274,annau,37.8876,58.516,14.72,31,{'all': 40},2.06,TM,1681728376
275,port hedland,-20.3167,118.5667,26.03,50,{'all': 0},2.57,AU,1681728363
276,gimli,50.6336,-96.9907,-1.99,64,{'all': 6},5.14,CA,1681728377
277,normandin,48.8333,-72.5321,0.17,93,{'all': 93},1.54,CA,1681728377
278,salta,-24.7859,-65.4117,14.21,90,{'all': 75},0.51,AR,1681728378
279,ust-nera,64.5667,143.2,-7.58,97,{'all': 100},0.51,RU,1681728379
280,bridgewater,44.3835,-64.5155,6.17,99,{'all': 100},0.45,CA,1681728379
281,huatusco,19.15,-96.95,15.62,82,{'all': 97},1.39,MX,1681728380
282,nobeoka,32.5833,131.6667,13.21,79,{'all': 42},1.06,JP,1681728380
283,astana,51.1801,71.446,0.97,37,{'all': 40},5.0,KZ,1681728381
284,padang,-0.9492,100.3543,30.03,81,{'all': 53},1.25,ID,1681728181
285,vao,-22.6667,167.4833,26.1,87,{'all': 100},5.77,NC,1681728382
286,rawson,-43.3002,-65.1023,9.01,59,{'all': 65},7.72,AR,1681728382
287,lulea,65.5842,22.1547,7.04,61,{'all': 0},5.66,SE,1681728383
288,ejutla de crespo,16.5667,-96.7333,18.39,66,{'all': 84},1.83,MX,1681728384
289,atambua,-9.1061,124.8925,23.77,90,{'all': 100},1.48,ID,1681728384
290,shalinskoye,55.7228,93.7594,2.3,50,{'all': 100},4.73,RU,1681728385
291,lorengau,-2.0226,147.2712,27.11,81,{'all': 100},2.94,PG,1681728385
292,amarante,-6.2411,-42.8547,26.84,77,{'all': 99},0.37,BR,1681728386
293,cockburn town,21.4612,-71.1419,24.98,73,{'all': 40},2.57,TC,1681728386
294,mabaruma,8.2,-59.7833,24.8,81,{'all': 43},0.54,GY,1681728387
295,mahebourg,-20.4081,57.7,27.92,88,{'all': 40},1.03,MU,1681728387
296,bonthe,7.5264,-12.505,31.22,64,{'all': 95},1.05,SL,1681728388
297,markivka,49.5229,39.5705,13.82,33,{'all': 100},6.78,UA,1681728388
298,nabire,-3.3667,135.4833,25.67,90,{'all': 98},1.43,ID,1681728389
299,poum,-20.2333,164.0167,26.24,84,{'all': 98},10.59,NC,1681728389
300,vostok,46.4856,135.8833,-0.37,62,{'all': 10},0.9,RU,1681728390
301,chenghai,23.4632,116.768,27.95,65,{'all': 0},4.0,CN,1681728391
302,westport,41.1415,-73.3579,13.75,93,{'all': 100},7.2,US,1681728391
303,hermanus,-34.4187,19.2345,19.71,59,{'all': 2},0.85,ZA,1681728273
304,wajir,1.7471,40.0573,31.94,45,{'all': 92},4.01,KE,1681728392
305,luderitz,-26.6481,15.1594,24.27,44,{'all': 12},3.32,NA,1681728393
306,santana do matos,-5.9575,-36.6556,26.88,76,{'all': 98},2.61,BR,1681728393
307,compostela,7.6731,126.0889,24.83,94,{'all': 34},0.79,PH,1681728394
308,rapid valley,44.0625,-103.1463,3.13,60,{'all': 0},2.57,US,1681728395
309,atagay,55.1033,99.3875,2.52,46,{'all': 100},5.35,RU,1681728395
310,pisco,-13.7,-76.2167,21.12,83,{'all': 20},1.03,PE,1681728395
311,constitucion,-35.3333,-72.4167,7.99,78,{'all': 1},3.76,CL,1681728396
312,samarai,-10.6167,150.6667,27.31,72,{'all': 100},1.98,PG,1681728397
313,phillipsburg,40.6937,-75.1902,14.36,89,{'all': 100},1.34,US,1681728397
314,coquimbo,-29.9533,-71.3436,11.85,82,{'all': 0},2.06,CL,1681728170
315,balaipungut,1.05,101.2833,27.2,81,{'all': 67},1.41,ID,1681728398
316,arlit,18.7369,7.3853,37.68,6,{'all': 0},4.05,NE,1681728398
317,marystown,47.1666,-55.1483,3.25,100,{'all': 100},2.12,CA,1681728399
318,itarema,-2.9248,-39.9167,25.21,89,{'all': 100},2.97,BR,1681728399
319,caninde,-4.3589,-39.3117,24.4,92,{'all': 100},1.86,BR,1681728400
320,colchester,51.8892,0.9042,15.42,76,{'all': 21},4.42,GB,1681728400
321,usinsk,65.9939,57.5281,-0.71,92,{'all': 100},3.42,RU,1681728401
322,kendari,-3.945,122.4989,26.02,86,{'all': 95},0.9,ID,1681728243
323,solnechnyy,50.7214,136.6319,-0.78,77,{'all': 1},1.55,RU,1681728402
324,burnie,-41.0667,145.9167,13.58,84,{'all': 5},2.54,AU,1681728207
325,san buenaventura,27.0833,-101.5333,18.04,51,{'all': 35},2.15,MX,1681728403
326,ossora,59.2353,163.0719,0.27,99,{'all': 100},5.45,RU,1681728404
327,yumen,40.2833,97.2,20.75,21,{'all': 99},5.09,CN,1681728404
328,loreto,22.2667,-101.9667,12.53,80,{'all': 11},5.54,MX,1681728240
329,bairiki,1.3292,172.9752,28.0,83,{'all': 20},1.54,KI,1681728405
330,lancaster,40.2504,-76.2499,13.72,83,{'all': 100},2.68,US,1681728406
331,ravar,31.2656,56.8055,23.53,18,{'all': 47},6.87,IR,1681728406
332,ballina,-28.8667,153.5667,19.32,74,{'all': 63},8.71,AU,1681728407
333,praia,14.9215,-23.5087,26.3,65,{'all': 20},9.77,CV,1681728359
334,lima,-12.0432,-77.0282,23.28,83,{'all': 75},2.57,PE,1681728408
335,bailieborough,53.9167,-6.9667,11.83,90,{'all': 94},3.27,IE,1681728408
336,hauterive,46.0901,3.4459,10.42,68,{'all': 88},3.84,FR,1681728409
337,bambous virieux,-20.3428,57.7575,27.9,88,{'all': 40},1.03,MU,1681728409
338,banting,2.8167,101.5,32.08,78,{'all': 98},2.04,MY,1681728410
339,acapulco,16.8634,-99.8901,23.9,94,{'all': 0},0.0,MX,1681728131
340,namatanai,-3.6667,152.4333,26.44,81,{'all': 53},1.33,PG,1681728411
341,khandbari,27.3747,87.2039,32.98,12,{'all': 23},3.31,NP,1681728412
342,pangnirtung,66.1451,-65.7125,-16.42,86,{'all': 66},1.55,CA,1681728413
343,novo aripuana,-5.1206,-60.3797,23.09,99,{'all': 100},0.37,BR,1681728413
344,tayshet,55.9342,98.0044,1.47,47,{'all': 100},6.68,RU,1681728413
345,amahai,-3.3333,128.9167,27.07,83,{'all': 83},0.72,ID,1681728414
346,klyuchi,52.2667,79.1667,0.6,77,{'all': 97},6.36,RU,1681728415
347,puri,19.8,85.85,39.29,71,{'all': 47},8.76,IN,1681728415
348,eureka,40.8021,-124.1637,7.74,94,{'all': 100},2.47,US,1681728415
349,skowhegan,44.7651,-69.7192,10.88,98,{'all': 100},0.99,US,1681728416
350,leku,6.8667,38.45,23.54,59,{'all': 85},1.83,ET,1681728416
351,kodiak,57.79,-152.4072,-0.27,51,{'all': 75},10.8,US,1681728417
352,quatre cocos,-20.2078,57.7625,27.83,76,{'all': 23},4.66,MU,1681728417
353,walvis bay,-22.9575,14.5053,28.53,39,{'all': 40},1.03,NA,1681728418
354,yulara,-25.2406,130.9889,18.91,36,{'all': 4},3.71,AU,1681728418
355,sorgun,39.8101,35.186,20.56,25,{'all': 100},5.12,TR,1681728419
356,yar-sale,66.8333,70.8333,-11.15,92,{'all': 95},7.09,RU,1681728420
357,mahendranagar,28.9167,80.3333,40.9,8,{'all': 10},5.72,NP,1681728420
358,takoradi,4.8845,-1.7554,29.97,67,{'all': 97},3.73,GH,1681728421
359,hofn,64.2539,-15.2082,8.01,100,{'all': 100},8.23,IS,1681728421
360,olinda,-8.0089,-34.8553,25.85,78,{'all': 20},0.51,BR,1681728422
361,teya,60.3778,92.6267,-1.54,83,{'all': 100},3.63,RU,1681728422
362,clyde river,70.4692,-68.5914,-16.87,71,{'all': 0},8.75,CA,1681728422
363,manokwari,-0.8667,134.0833,26.75,84,{'all': 96},4.53,ID,1681728423
364,cajati,-24.7361,-48.1228,21.7,97,{'all': 54},0.98,BR,1681728423
365,huarmey,-10.0681,-78.1522,24.34,83,{'all': 100},3.32,PE,1681728424
366,coihaique,-45.5752,-72.0662,2.97,87,{'all': 0},1.03,CL,1681728424
367,poronaysk,49.2167,143.1167,0.28,72,{'all': 59},5.67,RU,1681728425
368,nanortalik,60.1432,-45.2371,0.35,85,{'all': 97},2.69,GL,1681728425
369,qui nhon,13.7667,109.2333,26.82,86,{'all': 52},4.19,VN,1681728426
370,hirado,33.3597,129.5531,14.66,60,{'all': 66},1.77,JP,1681728322
371,lamu,-2.2717,40.902,33.12,70,{'all': 95},4.93,KE,1681728427
372,carballo,43.213,-8.691,24.45,60,{'all': 57},2.36,ES,1681728131
373,saint george,37.1041,-113.5841,12.33,37,{'all': 0},2.06,US,1681728428
374,gerash,27.6652,54.1371,28.08,17,{'all': 79},1.77,IR,1681728429
375,staryy nadym,65.6118,72.6842,-8.44,85,{'all': 100},7.66,RU,1681728429
376,tuatapere,-46.1333,167.6833,13.38,77,{'all': 100},2.66,NZ,1681728430
377,katsuura,35.1333,140.3,13.88,63,{'all': 27},3.79,JP,1681728421
378,limerick,52.6647,-8.6231,13.38,90,{'all': 100},4.05,IE,1681728430
379,tura,25.5198,90.2201,37.17,13,{'all': 2},2.07,IN,1681728431
380,manaquiri,-3.3167,-60.35,25.25,98,{'all': 100},1.0,BR,1681728431
381,boa vista,2.8197,-60.6733,23.99,94,{'all': 40},0.51,BR,1681728432
382,nome,64.5011,-165.4064,-16.96,66,{'all': 0},5.14,US,1681728433
383,breves,-1.6822,-50.4803,24.2,93,{'all': 100},0.88,BR,1681728433
384,obigarm,38.7173,69.7088,10.82,81,{'all': 100},1.24,TJ,1681728434
385,jacareacanga,-6.2222,-57.7528,23.41,98,{'all': 98},0.11,BR,1681728434
386,graz,47.0667,15.45,16.42,52,{'all': 20},5.66,AT,1681728267
387,khasan,42.4308,130.6434,6.33,80,{'all': 94},4.76,RU,1681728435
388,srednekolymsk,67.45,153.6833,-8.07,95,{'all': 94},1.94,RU,1681728436
389,salalah,17.0151,54.0924,31.05,66,{'all': 40},6.69,OM,1681728436
390,malakal,9.5334,31.6605,41.58,17,{'all': 70},0.95,SS,1681728437
391,am timan,11.0297,20.2827,39.03,21,{'all': 62},3.01,TD,1681728437
392,yaring,6.8662,101.3689,29.59,70,{'all': 100},3.78,TH,1681728438
393,yerbogachen,61.2767,108.0108,-5.88,84,{'all': 100},1.27,RU,1681728439
394,consuegra,39.4625,-3.608,19.43,22,{'all': 9},5.2,ES,1681728439
395,alta floresta,-9.8756,-56.0861,23.1,95,{'all': 99},0.65,BR,1681728440
396,sarkand,45.41,79.9186,10.93,53,{'all': 100},8.23,KZ,1681728440
397,reforma,18.1,-91.0167,22.34,89,{'all': 91},1.84,MX,1681728441
398,caramay,10.1815,119.236,27.76,75,{'all': 23},1.02,PH,1681728442
399,ribeirao bonito,-22.0667,-48.1761,20.9,84,{'all': 0},1.55,BR,1681728442
400,nha trang,12.25,109.1833,30.0,78,{'all': 9},3.15,VN,1681728164
401,ewa beach,21.3156,-158.0072,23.97,82,{'all': 75},3.6,US,1681728443
402,banes,20.9625,-75.7186,23.04,90,{'all': 0},1.45,CU,1681728444
403,batagay,67.6333,134.6333,-3.19,84,{'all': 100},0.91,RU,1681728444
404,balikpapan,-1.2675,116.8289,26.82,81,{'all': 98},1.71,ID,1681727732
405,pointe michel,15.25,-61.3833,23.16,76,{'all': 56},4.73,DM,1681728445
406,iraray,8.9936,118.0511,27.48,77,{'all': 31},1.42,PH,1681728446
407,nkhata bay,-11.6066,34.2907,23.93,78,{'all': 78},4.49,MW,1681728447
408,mackay,-21.15,149.2,23.71,73,{'all': 91},5.51,AU,1681728316
409,russkaya polyana,49.417,31.9201,12.77,37,{'all': 92},6.76,UA,1681728448
410,jasper,37.2001,-94.3502,4.03,62,{'all': 0},1.54,US,1681728449
411,bridlington,54.0831,-0.1919,12.38,75,{'all': 61},4.2,GB,1681728188
412,oktyabrskiy,54.4815,53.471,11.07,41,{'all': 23},3.91,RU,1681728248
413,banning,33.9256,-116.8764,14.71,86,{'all': 9},2.01,US,1681728450
414,cordoba,-31.4135,-64.1811,13.75,96,{'all': 100},1.03,AR,1681728451
415,kahului,20.8947,-156.47,23.8,80,{'all': 0},2.57,US,1681728350
416,daru,-9.0763,143.2092,27.26,81,{'all': 66},2.31,PG,1681728175
417,anadyr,64.75,177.4833,-15.72,91,{'all': 0},1.79,RU,1681728214
418,vestmannaeyjar,63.4427,-20.2734,8.55,93,{'all': 100},7.2,IS,1681728454
419,yenagoa,4.9247,6.2642,31.94,56,{'all': 100},1.72,NG,1681728455
420,placerville,38.7296,-120.7986,8.77,84,{'all': 0},2.68,US,1681728455
421,grand gaube,-20.0064,57.6608,27.99,75,{'all': 20},2.24,MU,1681728456
422,ahuimanu,21.4447,-157.8378,23.84,89,{'all': 100},3.6,US,1681728457
423,beyla,8.6833,-8.6333,34.14,37,{'all': 56},0.79,GN,1681728458
424,tautira,-17.7333,-149.15,27.28,75,{'all': 62},3.54,PF,1681728459
425,port blair,11.6667,92.75,30.16,63,{'all': 9},1.71,IN,1681728167
426,tommot,58.9564,126.2925,-5.72,85,{'all': 100},3.67,RU,1681728460
427,aklavik,68.2191,-135.0107,-15.52,91,{'all': 98},7.31,CA,1681728460
428,hopelchen,19.7667,-89.85,21.1,91,{'all': 91},1.23,MX,1681728460
429,boli,45.7667,130.5167,7.37,40,{'all': 42},1.81,CN,1681728348
430,cordele,31.9635,-83.7824,11.92,69,{'all': 0},0.0,US,1681728462
431,edd,13.9297,41.6925,34.89,44,{'all': 23},8.04,ER,1681728462
432,hambantota,6.1241,81.1185,32.19,66,{'all': 20},3.09,LK,1681728406
433,mahibadhoo,3.7833,72.9667,29.09,66,{'all': 17},1.34,MV,1681728463
434,darnah,32.767,22.6367,17.62,80,{'all': 0},7.84,LY,1681728464
435,mangaratiba,-22.9597,-44.0406,22.48,80,{'all': 28},1.98,BR,1681728464
436,egvekinot,66.3167,-179.1667,-20.41,87,{'all': 54},1.33,RU,1681728465
437,acari,-15.4311,-74.6158,21.44,86,{'all': 100},0.37,PE,1681728466
438,caluquembe,-13.7833,14.6833,23.89,42,{'all': 100},4.68,AO,1681728466
439,lazaro cardenas,17.9583,-102.2,24.36,80,{'all': 63},1.71,MX,1681728469
440,sijunjung,-0.6876,100.9537,25.69,91,{'all': 76},0.81,ID,1681728470
441,uyuni,-20.4597,-66.825,3.98,35,{'all': 60},4.8,BO,1681728470
442,saldanha,-33.0117,17.9442,26.03,74,{'all': 1},7.55,ZA,1681728280
443,dawlatabad,36.4141,64.9053,15.42,34,{'all': 100},3.35,AF,1681728471
444,flic en flac,-20.2742,57.3631,28.07,72,{'all': 17},5.31,MU,1681728472
445,aragarcas,-15.8975,-52.2508,24.59,82,{'all': 80},0.27,BR,1681728473
446,san jose,37.3394,-121.895,11.67,82,{'all': 75},6.26,US,1681728280
447,beringovskiy,63.05,179.3167,-9.68,97,{'all': 92},1.32,RU,1681728474
448,buin,-33.7333,-70.75,11.52,83,{'all': 1},0.69,CL,1681728474
449,vyartsilya,62.1764,30.693,2.37,92,{'all': 99},1.89,RU,1681728475
450,venustiano carranza,19.43,-99.0992,14.52,62,{'all': 59},1.79,MX,1681728475
451,kattivakkam,13.2167,80.3167,36.05,75,{'all': 0},6.7,IN,1681728476
452,bosaso,11.2842,49.1816,29.99,79,{'all': 0},7.72,SO,1681728478
453,rudnyy,52.9594,63.1206,8.13,33,{'all': 79},5.8,KZ,1681728478
454,abu dhabi,24.4667,54.3667,29.06,30,{'all': 0},5.14,AE,1681728151
455,the valley,18.217,-63.0578,24.92,71,{'all': 21},5.43,AI,1681728481
456,bundaberg,-24.85,152.35,23.59,77,{'all': 92},6.63,AU,1681728300
457,mandera,3.9366,41.867,34.18,39,{'all': 99},2.94,KE,1681728482
458,mkushi,-13.6202,29.3939,20.88,70,{'all': 100},3.49,ZM,1681728483
459,lokosovo,61.1333,74.8167,-11.94,81,{'all': 100},6.13,RU,1681728483
460,mayumba,-3.432,10.6554,29.37,64,{'all': 92},1.94,GA,1681728484
461,skerries,53.5828,-6.1083,16.92,77,{'all': 54},3.98,IE,1681728484
462,lusambo,-4.9667,23.45,23.4,88,{'all': 100},0.96,CD,1681728485
463,dunmore town,25.5,-76.65,24.56,84,{'all': 100},4.84,BS,1681728485
464,komsomolskiy,40.4272,71.7189,16.4,59,{'all': 40},3.09,UZ,1681728486
465,aloleng,16.1307,119.7824,27.94,76,{'all': 89},2.47,PH,1681728486
466,severo-yeniseyskiy,60.3725,93.0408,-3.51,82,{'all': 100},4.31,RU,1681728487
467,leh,34.1667,77.5833,7.07,52,{'all': 27},2.23,IN,1681728461
468,winchester,51.0651,-1.3187,14.74,65,{'all': 20},2.06,GB,1681728489
469,hay river,60.8156,-115.7999,3.99,65,{'all': 40},5.14,CA,1681728489
470,fomboni,-12.28,43.7425,29.02,69,{'all': 84},3.81,KM,1681728490
471,yavaros,26.7,-109.5167,18.95,57,{'all': 5},1.69,MX,1681728491
472,harper,4.375,-7.7169,29.92,67,{'all': 50},2.94,LR,1681728492
473,cayenne,4.9333,-52.3333,24.02,100,{'all': 75},1.54,GF,1681728494
474,saint pete beach,27.7253,-82.7412,21.77,94,{'all': 75},4.12,US,1681728494
475,tabou,4.423,-7.3528,29.95,67,{'all': 91},3.35,CI,1681728495
476,buala,-8.145,159.5921,25.71,78,{'all': 43},2.47,SB,1681728495
477,jian,27.1172,114.9793,26.91,52,{'all': 41},5.07,CN,1681728276
478,griffith,41.5284,-87.4237,0.73,81,{'all': 100},6.17,US,1681728496
479,ormara,25.2088,64.6357,27.05,78,{'all': 19},5.29,PK,1681728497
480,maraba,-5.3686,-49.1178,24.1,100,{'all': 0},0.0,BR,1681728498
481,dalianwan,39.0286,121.695,11.02,71,{'all': 40},7.0,CN,1681728498
482,dolores,-36.3132,-57.6792,8.54,83,{'all': 54},1.39,AR,1681728498
483,nemuro,43.3236,145.575,1.59,74,{'all': 100},10.83,JP,1681728260
484,ust-kuyga,70.0167,135.6,-11.91,94,{'all': 63},1.55,RU,1681728499
485,chongwe,-15.3292,28.682,21.63,63,{'all': 100},3.44,ZM,1681728500
486,dalbandin,28.8947,64.4101,28.01,24,{'all': 100},6.08,PK,1681728500
487,mirpur mathelo,28.0227,69.5489,40.4,14,{'all': 69},4.41,PK,1681728501
488,nouadhibou,20.931,-17.0347,20.99,73,{'all': 20},5.14,MR,1681728310
489,la ronge,55.1001,-105.2842,-1.86,86,{'all': 0},2.57,CA,1681728502
490,nizhniy kuranakh,58.8353,125.4869,-6.2,83,{'all': 100},3.55,RU,1681728503
491,lalmohan,22.3384,90.7419,30.55,73,{'all': 57},6.83,BD,1681728504
492,laibin,23.7,109.2667,26.57,74,{'all': 100},3.52,CN,1681728279
493,deputatskiy,69.3,139.9,-16.95,100,{'all': 81},1.1,RU,1681728505
494,sangamner,19.5667,74.2167,36.9,14,{'all': 55},1.47,IN,1681728505
495,vardo,70.3705,31.1107,1.99,93,{'all': 75},6.17,NO,1681728506
496,kalakamati,-20.5929,27.3121,27.18,27,{'all': 0},1.55,BW,1681728506
497,ibra,22.6906,58.5334,36.11,18,{'all': 50},9.67,OM,1681728325
498,magistralnyy,56.1725,107.4458,-2.04,86,{'all': 100},1.19,RU,1681728507
499,san cristobal,7.7669,-72.225,20.1,95,{'all': 100},1.19,VE,1681728507
500,sattahip,12.6664,100.9007,32.21,74,{'all': 20},4.63,TH,1681728508
501,menongue,-14.6585,17.691,26.59,41,{'all': 96},5.74,AO,1681728509
502,sri aman,1.2376,111.4621,30.03,79,{'all': 20},1.03,MY,1681728509
503,asau,46.4333,26.4,7.51,96,{'all': 100},2.21,RO,1681728510
504,watsonville,36.9102,-121.7569,11.09,92,{'all': 0},0.0,US,1681728512
505,pangkalanbuun,-2.6833,111.6167,25.65,88,{'all': 96},0.92,ID,1681728458
506,opuwo,-18.0607,13.84,32.13,20,{'all': 16},6.43,NA,1681728512
507,lubbock,33.6001,-101.8338,11.14,41,{'all': 0},6.17,US,1681728513
508,nyurba,63.2842,118.3319,-6.32,82,{'all': 100},5.29,RU,1681728514
509,husavik,66.0449,-17.3389,7.52,89,{'all': 100},3.86,IS,1681728514
510,tay ninh,11.3,106.1,32.1,54,{'all': 100},3.76,VN,1681727708
511,sao miguel do tapuio,-5.5036,-41.3233,24.51,91,{'all': 92},2.53,BR,1681728515
512,roswell,34.0232,-84.3616,8.64,84,{'all': 0},2.06,US,1681728516
513,meghri,38.9029,46.2446,13.67,68,{'all': 94},3.68,AM,1681728516
514,marawi,7.9986,124.2928,21.86,84,{'all': 73},0.9,PH,1681728517
515,gazanjyk,39.2446,55.5154,16.79,14,{'all': 5},5.61,TM,1681728517
516,sandovo,58.4602,36.4128,9.81,59,{'all': 100},2.03,RU,1681728517
517,polunochnoye,60.8697,60.4153,2.34,72,{'all': 100},2.41,RU,1681728518
518,akyab,20.15,92.9,29.8,76,{'all': 83},6.08,MM,1681728519
519,tonj,7.2737,28.6822,36.01,32,{'all': 93},2.76,SS,1681728519
520,upata,8.0086,-62.3989,22.88,86,{'all': 86},1.89,VE,1681728521
521,horta,38.5333,-28.6333,15.8,70,{'all': 40},6.17,PT,1681728521
522,uvinza,-5.1036,30.3911,26.53,61,{'all': 72},4.08,TZ,1681728522
523,niquero,20.0431,-77.5828,24.55,81,{'all': 7},1.44,CU,1681728522
524,kabankalan,9.9889,122.8122,28.01,75,{'all': 80},0.7,PH,1681728476
525,chicama,-7.8447,-79.1469,23.3,84,{'all': 100},1.19,PE,1681728523
526,sao joao da barra,-21.6403,-41.0511,23.05,85,{'all': 0},2.28,BR,1681728470
527,puerto escondido,15.85,-97.0667,26.19,76,{'all': 45},0.61,MX,1681728390
528,ancud,-41.8697,-73.8203,7.21,80,{'all': 76},3.23,CL,1681728324
529,codrington,-38.2667,141.9667,14.61,93,{'all': 66},3.11,AU,1681728525
530,kintampo,8.0563,-1.7306,27.84,65,{'all': 96},1.87,GH,1681728526
531,boende,-0.2167,20.8667,28.23,67,{'all': 79},1.89,CD,1681728526
532,banda aceh,5.5577,95.3222,29.2,74,{'all': 51},1.92,ID,1681728264
533,liwale,-9.7667,37.9333,26.01,70,{'all': 70},3.5,TZ,1681728527
534,makasar,-5.14,119.4221,27.03,74,{'all': 40},1.03,ID,1681728515
535,kavaratti,10.5669,72.642,29.12,69,{'all': 31},1.75,IN,1681728528
536,manali,13.1667,80.2667,36.05,75,{'all': 0},6.78,IN,1681728245
537,havelock,34.8791,-76.9013,19.98,90,{'all': 0},3.6,US,1681728425
538,kangaatsiaq,68.3065,-53.4641,-7.58,90,{'all': 100},5.33,GL,1681728530
539,le locle,47.0595,6.7523,7.04,90,{'all': 99},3.95,CH,1681728531
540,mizque,-17.941,-65.3402,14.76,87,{'all': 11},1.01,BO,1681728446
541,luau,-10.7073,22.2247,19.32,94,{'all': 100},2.23,AO,1681728532
542,kanniyakumari,8.0833,77.5667,29.87,68,{'all': 14},3.79,IN,1681728532
543,soc trang,9.6033,105.98,28.9,71,{'all': 99},4.43,VN,1681728279
544,jaisalmer,26.9147,70.9181,38.07,16,{'all': 52},3.83,IN,1681728304
545,teguise,29.0605,-13.564,21.12,53,{'all': 20},4.63,ES,1681728534
546,hirara,24.8,125.2833,23.15,78,{'all': 0},5.14,JP,1681728320
547,kruisfontein,-34.0033,24.7314,29.16,20,{'all': 22},2.82,ZA,1681728535
548,krasnoselkup,65.7,82.4667,-8.83,82,{'all': 99},2.21,RU,1681728535
549,ouadda,8.0777,22.4007,31.53,41,{'all': 100},2.54,CF,1681728536
550,kavieng,-2.5744,150.7967,27.97,76,{'all': 49},2.64,PG,1681728536
551,chihuahua,28.5,-106.0,15.67,46,{'all': 3},2.4,MX,1681728537
552,margate,51.3813,1.3862,13.39,79,{'all': 68},1.79,GB,1681728538
553,bamnet narong,15.4992,101.6897,37.04,30,{'all': 50},3.07,TH,1681728326
554,broken hill,-31.95,141.4333,15.94,47,{'all': 0},3.28,AU,1681728539
555,halifax,44.6453,-63.5724,6.49,96,{'all': 100},2.57,CA,1681728539
556,san nicolas,18.1725,120.5953,29.95,70,{'all': 75},1.03,PH,1681728458
557,malartic,48.1335,-78.1328,9.06,94,{'all': 100},4.23,CA,1681728540
558,xichang,27.8964,102.2634,26.94,29,{'all': 35},2.53,CN,1681728541
559,zaymishche,52.7264,32.2334,12.34,44,{'all': 98},3.99,RU,1681728542
560,dulce nombre de culmi,15.1,-85.5333,17.8,98,{'all': 29},0.16,HN,1681728542
561,piranhas,-16.4269,-51.8222,24.87,78,{'all': 61},0.91,BR,1681728543
562,faya,18.3851,42.4509,24.06,36,{'all': 0},5.18,SA,1681728543
563,emerald,-23.5333,148.1667,25.68,50,{'all': 48},2.26,AU,1681728544
564,avera,33.194,-82.5271,10.73,62,{'all': 96},3.86,US,1681728544
565,peniche,39.3558,-9.3811,26.83,35,{'all': 14},1.89,PT,1681728545
566,pinotepa nacional,16.3167,-98.0167,22.83,81,{'all': 11},1.11,MX,1681728545
567,meulaboh,4.1363,96.1285,28.86,73,{'all': 15},1.51,ID,1681728546
568,lavrentiya,65.5833,-171.0,-21.35,100,{'all': 78},1.93,RU,1681728546
569,cabrero,-37.0333,-72.4,4.32,96,{'all': 1},2.63,CL,1681728547
570,naze,28.3667,129.4833,19.51,64,{'all': 0},2.98,JP,1681728262
571,sivaki,52.6333,126.75,7.91,43,{'all': 100},3.91,RU,1681728548
572,beloha,-25.1667,45.05,29.14,40,{'all': 0},4.45,MG,1681728549
573,porosozero,62.7191,32.727,4.94,83,{'all': 80},0.6,RU,1681728549
574,lodwar,3.1191,35.5973,34.4,33,{'all': 100},6.58,KE,1681728550
